$GPRMC,161523.00,A,4826.0883,N,01750.9215,E,1.422,10.872,100423,,E,A*23
$GPRMC,161524.00,A,4826.0883,N,01750.9217,E,0.000,10.872,100423,,E,A*23
$GPRMC,161525.00,A,4826.0882,N,01750.9219,E,0.242,69.605,100423,,E,A*29
$GPRMC,161526.00,A,4826.0882,N,01750.9219,E,0.000,69.605,100423,,E,A*2E
$GPRMC,161527.00,A,4826.0886,N,01750.9220,E,2.114,48.052,100423,,E,A*20
$GPRMC,161528.00,A,4826.0895,N,01750.9224,E,3.710,48.052,100423,,E,A*2A
$GPRMC,161529.00,A,4826.0907,N,01750.9226,E,5.187,3.842,100423,,E,A*1B
$GPRMC,161530.00,A,4826.0926,N,01750.9218,E,7.914,334.842,100423,,E,A*1A
$GPRMC,161531.00,A,4826.0948,N,01750.9191,E,11.844,309.302,100423,,E,A*23
$GPRMC,161532.00,A,4826.0971,N,01750.9139,E,16.273,302.875,100423,,E,A*21
$GPRMC,161533.00,A,4826.0999,N,01750.9070,E,18.834,300.757,100423,,E,A*20
$GPRMC,161534.00,A,4826.1030,N,01750.8989,E,22.332,297.612,100423,,E,A*29
$GPRMC,161535.00,A,4826.1062,N,01750.8894,E,25.403,297.712,100423,,E,A*21
$GPRMC,161536.00,A,4826.1100,N,01750.8790,E,28.871,299.240,100423,,E,A*24
$GPRMC,161537.00,A,4826.1142,N,01750.8673,E,31.511,298.304,100423,,E,A*2C
$GPRMC,161538.00,A,4826.1190,N,01750.8549,E,34.627,303.403,100423,,E,A*26
$GPRMC,161539.00,A,4826.1254,N,01750.8433,E,36.143,316.322,100423,,E,A*27
$GPRMC,161540.00,A,4826.1337,N,01750.8336,E,39.420,326.551,100423,,E,A*21
$GPRMC,161541.00,A,4826.1428,N,01750.8234,E,41.468,322.265,100423,,E,A*2D
$GPRMC,161542.00,A,4826.1512,N,01750.8110,E,42.827,312.798,100423,,E,A*23
$GPRMC,161543.00,A,4826.1574,N,01750.7956,E,44.651,296.109,100423,,E,A*2D
$GPRMC,161544.00,A,4826.1614,N,01750.7767,E,48.790,289.132,100423,,E,A*25
$GPRMC,161545.00,A,4826.1649,N,01750.7565,E,48.168,287.816,100423,,E,A*2C
$GPRMC,161546.00,A,4826.1689,N,01750.7375,E,45.212,290.361,100423,,E,A*2A
$GPRMC,161547.00,A,4826.1734,N,01750.7206,E,41.087,292.351,100423,,E,A*22
$GPRMC,161548.00,A,4826.1789,N,01750.7077,E,38.998,300.279,100423,,E,A*27
$GPRMC,161549.00,A,4826.1891,N,01750.7000,E,40.937,325.343,100423,,E,A*25
$GPRMC,161550.00,A,4826.2002,N,01750.6910,E,44.872,324.083,100423,,E,A*2F
$GPRMC,161551.00,A,4826.2107,N,01750.6794,E,46.136,316.019,100423,,E,A*21
$GPRMC,161552.00,A,4826.2187,N,01750.6646,E,45.107,300.846,100423,,E,A*20
$GPRMC,161553.00,A,4826.2236,N,01750.6467,E,47.573,293.529,100423,,E,A*23
$GPRMC,161554.00,A,4826.2257,N,01750.6280,E,41.820,282.689,100423,,E,A*28
$GPRMC,161555.00,A,4826.2256,N,01750.6119,E,36.781,276.145,100423,,E,A*23
$GPRMC,161556.00,A,4826.2272,N,01750.5971,E,34.090,283.941,100423,,E,A*20
$GPRMC,161557.00,A,4826.2302,N,01750.5839,E,31.661,291.448,100423,,E,A*20
$GPRMC,161558.00,A,4826.2383,N,01750.5747,E,33.584,322.299,100423,,E,A*29
$GPRMC,161559.00,A,4826.2480,N,01750.5668,E,37.650,333.061,100423,,E,A*2B
$GPRMC,161600.00,A,4826.2563,N,01750.5586,E,33.162,318.946,100423,,E,A*2C
$GPRMC,161601.00,A,4826.2620,N,01750.5484,E,33.509,306.546,100423,,E,A*20
$GPRMC,161602.00,A,4826.2640,N,01750.5355,E,32.109,280.148,100423,,E,A*2E
$GPRMC,161603.00,A,4826.2615,N,01750.5213,E,32.732,256.002,100423,,E,A*26
$GPRMC,161604.00,A,4826.2566,N,01750.5067,E,35.453,246.252,100423,,E,A*22
$GPRMC,161605.00,A,4826.2514,N,01750.4921,E,34.848,245.326,100423,,E,A*2A
$GPRMC,161606.00,A,4826.2476,N,01750.4784,E,33.914,248.723,100423,,E,A*2E
$GPRMC,161607.00,A,4826.2446,N,01750.4648,E,32.374,250.168,100423,,E,A*20
$GPRMC,161608.00,A,4826.2429,N,01750.4519,E,29.953,253.848,100423,,E,A*2C
$GPRMC,161609.00,A,4826.2436,N,01750.4406,E,27.698,262.285,100423,,E,A*23
$GPRMC,161610.00,A,4826.2485,N,01750.4303,E,27.090,279.371,100423,,E,A*2F
$GPRMC,161611.00,A,4826.2581,N,01750.4192,E,31.755,295.695,100423,,E,A*25
$GPRMC,161612.00,A,4826.2694,N,01750.4084,E,36.488,306.965,100423,,E,A*28
$GPRMC,161613.00,A,4826.2701,N,01750.3945,E,34.490,271.407,100423,,E,A*24
$GPRMC,161614.00,A,4826.2658,N,01750.3798,E,36.584,248.530,100423,,E,A*29
$GPRMC,161615.00,A,4826.2582,N,01750.3659,E,43.829,230.011,100423,,E,A*21
$GPRMC,161616.00,A,4826.2508,N,01750.3509,E,43.924,237.903,100423,,E,A*27
$GPRMC,161617.00,A,4826.2460,N,01750.3342,E,43.491,253.096,100423,,E,A*24
$GPRMC,161618.00,A,4826.2445,N,01750.3163,E,43.484,266.049,100423,,E,A*2D
$GPRMC,161619.00,A,4826.2451,N,01750.2984,E,42.382,273.125,100423,,E,A*26
$GPRMC,161620.00,A,4826.2480,N,01750.2815,E,38.107,281.943,100423,,E,A*2E
$GPRMC,161621.00,A,4826.2555,N,01750.2671,E,40.441,309.246,100423,,E,A*2D
$GPRMC,161622.00,A,4826.2654,N,01750.2560,E,41.262,321.062,100423,,E,A*27
$GPRMC,161623.00,A,4826.2764,N,01750.2460,E,43.194,326.106,100423,,E,A*29
$GPRMC,161624.00,A,4826.2876,N,01750.2365,E,43.219,328.744,100423,,E,A*28
$GPRMC,161625.00,A,4826.2992,N,01750.2272,E,42.199,328.732,100423,,E,A*2E
